{"type": "FeatureCollection", "features": [{"type": "Feature", "geometry": {"type": "Point", "coordinates": ["48.596319", "8.865461"]}, "properties": {"name": "Aischbachstra\u00dfe", "address": "71083 Herrenberg", "capacity": "58"}}, {"type": "Feature", "geometry": {"type": "Point", "coordinates": ["48.593768", "8.872705"]}, "properties": {"name": "Altstadtgarage", "address": "71083 Herrenberg", "capacity": "97"}}, {"type": "Feature", "geometry": {"type": "Point", "coordinates": ["48.595150", "8.869170"]}, "properties": {"name": "Auf dem Graben", "address": "71083 Herrenberg", "capacity": "63"}}, {"type": "Feature", "geometry": {"type": "Point", "coordinates": ["48.593634", "8.863247"]}, "properties": {"name": "Bahnhofstra\u00dfe", "address": "71083 Herrenberg", "capacity": "47"}}, {"type": "Feature", "geometry": {"type": "Point", "coordinates": ["48.596636", "8.867949"]}, "properties": {"name": "Bronntor", "address": "71083 Herrenberg", "capacity": "90"}}, {"type": "Feature", "geometry": {"type": "Point", "coordinates": ["48.594364", "8.871189"]}, "properties": {"name": "G\u00fcltsteiner Stra\u00dfe", "address": "71083 Herrenberg", "capacity": "69"}}, {"type": "Feature", "geometry": {"type": "Point", "coordinates": ["48.594601", "8.872216"]}, "properties": {"name": "Hasenplatz", "address": "71083 Herrenberg", "capacity": "20"}}, {"type": "Feature", "geometry": {"type": "Point", "coordinates": ["48.594798", "8.869475"]}, "properties": {"name": "Hindenburgstra\u00dfe", "address": "71083 Herrenberg", "capacity": "19"}}, {"type": "Feature", "geometry": {"type": "Point", "coordinates": ["48.595168", "8.866325"]}, "properties": {"name": "Horber Stra\u00dfe/Nagolder Stra\u00dfe", "address": "71083 Herrenberg", "capacity": "36"}}, {"type": "Feature", "geometry": {"type": "Point", "coordinates": ["48.597865", "8.870266"]}, "properties": {"name": "Nufringer Tor", "address": "71083 Herrenberg", "capacity": "242"}}, {"type": "Feature", "geometry": {"type": "Point", "coordinates": ["48.594626", "8.862592"]}, "properties": {"name": "P+R Kalkofenstra\u00dfe", "address": "71083 Herrenberg", "capacity": "398"}}, {"type": "Feature", "geometry": {"type": "Point", "coordinates": ["48.597414", "8.869270"]}, "properties": {"name": "Seelesplatz", "address": "71083 Herrenberg", "capacity": "27"}}, {"type": "Feature", "geometry": {"type": "Point", "coordinates": ["48.599227", "8.869871"]}, "properties": {"name": "Stadthalle", "address": "Ecke Seestra\u00dfe", "capacity": "211"}}, {"type": "Feature", "geometry": {"type": "Point", "coordinates": ["48.594350", "8.869386"]}, "properties": {"name": "Volksbank", "address": "71083 Herrenberg", "capacity": "47"}}, {"type": "Feature", "geometry": {"type": "Point", "coordinates": ["48.595431", "8.874739"]}, "properties": {"name": "Wilhelmstra\u00dfe", "address": "71083 Herrenberg", "capacity": "18"}}, {"type": "Feature", "geometry": {"type": "Point", "coordinates": [48.59946, 8.86822]}, "properties": {"name": "Viehversteigerungshalle", "address": "71083 Herrenberg", "capacity": "95"}}]}