{
  "type": "FeatureCollection",
    "features": [
    {
      "type": "Feature",
      "geometry": {
        "type": "Point",
        "coordinates": [
          8.865461,
        48.596319
        ]
      },
      "properties": {
        "name": "Aischbachstraße",
        "address": "71083 Herrenberg",
        "capacity": 58,
        "type": "Parkplatz",
        "url": "https://www.herrenberg.de/de/Stadtleben/Erlebnis-Herrenberg/Service/Parkplaetze/Parkplatz?view=publish&item=parkingLocation&id=1016"
      }
    },
    {
      "type": "Feature",
      "geometry": {
        "type": "Point",
        "coordinates": [
          8.872705,
        48.593768
        ]
      },
      "properties": {
        "name": "Altstadtgarage",
        "address": "71083 Herrenberg",
        "capacity": 97,
        "type": "Parkhaus",
        "url": "https://stadtwerke.herrenberg.de/oepnv-parken/parken/sicher-und-zentral-parken/parkhaeuser-und-parkgebuehren/altstadtgarage/",
        "fee_hours": "Mo-Fr 08:00-20:00; Sa 08:00-14:00; PH off"
      }
    },
    {
      "type": "Feature",
      "geometry": {
        "type": "Point",
        "coordinates": [
          8.87029, 48.59502
        ]
      },
      "properties": {
        "id" : "946955a0-a5bb-11ea-8d72-81c79f744047",
        "name": "Oberer Graben",
        "address": "71083 Herrenberg",
        "capacity": 24,
        "type": "Parkplatz",
        "url": "https://www.herrenberg.de/de/Stadtleben/Erlebnis-Herrenberg/Service/Parkplaetze/Parkplatz?view=publish&item=parkingLocation&id=1002",
        "opening_hours": "Mo - Su 00:00-24:00; PH 00:00-24:00"
      }
    },

    {
      "type": "Feature",
      "geometry": {
        "type": "Point",
        "coordinates": [
          8.86898, 48.59518
        ]
      },
      "properties": {
        "id" : "5c4224c0-0a0e-11ea-9bc9-896973774264",
        "name": "Unterer Graben",
        "address": "71083 Herrenberg",
        "capacity": 39,
        "type": "Parkplatz",
        "url": "https://www.herrenberg.de/de/Stadtleben/Erlebnis-Herrenberg/Service/Parkplaetze/Parkplatz?view=publish&item=parkingLocation&id=1002",
        "opening_hours": "Mo,We,Th,Fr,Su 00:00-24:00; Tu,Sa 00:00-02:00, 14:30-24:00; PH 00:00-24:00"
      }
    },
    {
      "type": "Feature",
      "geometry": {
        "type": "Point",
        "coordinates": [
          8.863247,48.593634
        ]
      },
      "properties": {
        "name": "Kurzzeitparkplätze Bahnhofstraße",
        "address": "71083 Herrenberg",
        "capacity": 47,
        "type": "Parkplatz",
        "url": "https://stadtwerke.herrenberg.de/oepnv-parken/parken/sicher-und-zentral-parken/parkhaeuser-und-parkgebuehren/kurzzeitparkplaetze-bahnhofstrasse/",
        "fee_hours": "Mo-Fr 08:00-20:00; Sa 08:00-14:00; PH off"
      }
    },
    {
      "type": "Feature",
      "geometry": {
        "type": "Point",
        "coordinates": [
          8.86126, 48.59309
        ]
      },
      "properties": {
        "name": "P+R Bahnhofstraße",
        "address": "71083 Herrenberg",
        "capacity": 122,
        "type": "Park-Ride",
        "url": "https://www.dbbahnpark.de/standorte/karte/parkplatz-bahnhof-herrenberg/"
      }
    },
    {
      "type": "Feature",
      "geometry": {
        "type": "Point",
        "coordinates": [
          8.867949,
        48.596636
        ]
      },
      "properties": {
        "name": "Bronntor",
        "address": "71083 Herrenberg",
        "capacity": 90,
        "type": "Tiefgarage",
        "url": "https://stadtwerke.herrenberg.de/oepnv-parken/parken/sicher-und-zentral-parken/parkhaeuser-und-parkgebuehren/bronntor-tiefgarage/",
        "fee_hours": "Mo-Fr 08:00-20:00; Sa 08:00-14:00; PH off",
        "opening_hours": "Mo-Fr 07:30-22:00; Sa 07:30-18:00; PH off"
      }
    },
    {
      "type": "Feature",
      "geometry": {
        "type": "Point",
        "coordinates": [
          8.871189,
        48.594364
        ]
      },
      "properties": {
        "name": "G\u00fcltsteiner Straße",
        "address": "71083 Herrenberg",
        "capacity": 69,
        "type": "Parkplatz",
        "url": "https://www.herrenberg.de/de/Stadtleben/Erlebnis-Herrenberg/Service/Parkplaetze/Parkplatz?view=publish&item=parkingLocation&id=1022"
      }
    },
    {
      "type": "Feature",
      "geometry": {
        "type": "Point",
        "coordinates": [
          8.872216,
        48.594601
        ]
      },
      "properties": {
        "name": "Hasenplatz",
        "address": "71083 Herrenberg",
        "capacity": 20,
        "type": "Parkplatz",
        "url": "https://www.herrenberg.de/de/Stadtleben/Erlebnis-Herrenberg/Service/Parkplaetze/Parkplatz?view=publish&item=parkingLocation&id=1021"
      }
    },
    {
      "type": "Feature",
      "geometry": {
        "type": "Point",
        "coordinates": [
          8.866325,
        48.595168
        ]
      },
      "properties": {
        "name": "Horber Straße/Nagolder Straße",
        "address": "71083 Herrenberg",
        "capacity": 36,
        "type": "Parkplatz",
        "url": "https://www.herrenberg.de/de/Stadtleben/Erlebnis-Herrenberg/Service/Parkplaetze/Parkplatz?view=publish&item=parkingLocation&id=1017"
      }
    },
    {
      "type": "Feature",
      "geometry": {
        "type": "Point",
        "coordinates": [
          8.870266,
        48.597865
        ]
      },
      "properties": {
        "name": "Nufringer Tor",
        "address": "71083 Herrenberg",
        "capacity": 242,
        "type": "Parkhaus",
        "url": "https://www.herrenberg.de/de/Stadtleben/Erlebnis-Herrenberg/Service/Parkplaetze/Parkplatz?view=publish&item=parkingLocation&id=1012"
      }
    },
    {
      "type": "Feature",
      "geometry": {
        "type": "Point",
        "coordinates": [
          8.86150,48.59403
        ]
      },
      "properties": {
        "name": "P+R Kalkofenstraße",
        "address": "71083 Herrenberg",
        "capacity": 398,
        "type": "Park-Ride",
        "url": "https://stadtwerke.herrenberg.de/oepnv-parken/parken/sicher-und-zentral-parken/parkhaeuser-und-parkgebuehren/p-r-parkhaus/",
        "fee_hours": "Mo-Fr 08:00-20:00; Sa 08:00-14:00; PH off"
      }
    },
    {
      "type": "Feature",
      "geometry": {
        "type": "Point",
        "coordinates": [
          8.869270,48.597414
        ]
      },
      "properties": {
        "name": "Seelesplatz",
        "address": "71083 Herrenberg",
        "capacity": 27,
        "type": "Parkplatz",
        "url": "https://www.herrenberg.de/de/Stadtleben/Erlebnis-Herrenberg/Service/Parkplaetze/Parkplatz?view=publish&item=parkingLocation&id=1014"
      }
    },
    {
      "type": "Feature",
      "geometry": {
        "type": "Point",
        "coordinates": [
          8.869871,
        48.599227
        ]
      },
      "properties": {
        "name": "Stadthalle",
        "address": "Ecke Seestraße",
        "capacity": 211,
        "type": "Parkplatz",
        "url": "https://www.herrenberg.de/de/Stadtleben/Erlebnis-Herrenberg/Service/Parkplaetze/Parkplatz?view=publish&item=parkingLocation&id=1006"
      }
    },
    {
      "type": "Feature",
      "geometry": {
        "type": "Point",
        "coordinates": [
          8.869386,
        48.594350
        ]
      },
      "properties": {
        "name": "Volksbank",
        "address": "71083 Herrenberg",
        "capacity": 47,
        "type": "Parkplatz",
        "url": "https://www.herrenberg.de/de/Stadtleben/Erlebnis-Herrenberg/Service/Parkplaetze/Parkplatz?view=publish&item=parkingLocation&id=1020"
      }
    },
    {
      "type": "Feature",
      "geometry": {
        "type": "Point",
        "coordinates": [
          8.874739,
        48.595431
        ]
      },
      "properties": {
        "name": "Wilhelmstraße",
        "address": "71083 Herrenberg",
        "capacity": 18,
        "type": "Parkplatz",
        "url": "https://www.herrenberg.de/de/Stadtleben/Erlebnis-Herrenberg/Service/Parkplaetze/Parkplatz?view=publish&item=parkingLocation&id=1023"
      }
    },
    {
      "type": "Feature",
      "geometry": {
        "type": "Point",
        "coordinates": [
          8.86822,
        48.59946
        ]
      },
      "properties": {
        "name": "Viehversteigerungshalle",
        "address": "71083 Herrenberg",
        "capacity": 95,
        "type": "Parkplatz",
        "url": "https://www.herrenberg.de/de/Stadtleben/Erlebnis-Herrenberg/Service/Parkplaetze/Parkplatz?view=publish&item=parkingLocation&id=1025"
      }
    },
    {
      "type": "Feature",
      "geometry": {
        "type": "Point",
        "coordinates": [
          8.87751,
        48.59019
        ]
      },
      "properties": {
        "id": "c455d080-fcb1-11e9-9a2d-876c1a6b66b2",
        "name": "Wohnmobilhafen Herrenberg",
        "address": "71083 Herrenberg",
        "capacity": 10,
        "type": "Wohnmobilparkplatz",
        "url": "https://www.herrenberg.de/de/Stadtleben/Erlebnis-Herrenberg/Tourismus-Gaeste/uebernachten/Wohnmobilstellplaetze"
      }
    },
    {
      "type": "Feature",
      "geometry": {
        "type": "Point",
        "coordinates": [
          8.90220,
        48.58070
        ]
      },
      "properties": {
        "name": "Parken + Mitfahren A81/B296 (Derzeit wg. Bauarbeiten gesperrt)",
        "address": "Parkplatz bei der Autobahnmeisterei",
        "capacity": 10,
        "free": 0,
        "type": "Park-Carpool",
        "state": "closed"
      }
    },
    {
      "type": "Feature",
      "geometry": {
        "type": "Point",
        "coordinates": [
         8.89462,
        48.57867
        ]
      },
      "properties": {
        "name": "Parken + Mitfahren A81 Herrenberg/Gültstein (Ersatzfläche)",
        "address": "Parkplatz südl. Ohmstraße Gültstein",
        "capacity": 50,
        "type": "Park-Carpool"
      }
    }
  ]
}
