{
    "type": "FeatureCollection",
    "features": [
        {
            "type": "Feature",
            "geometry": {
                "type": "Point",
                "coordinates": [
                    8.865461,
                    48.596319
                ]
            },
            "properties": {
                "name": "Aischbachstra\u00dfe",
                "address": "71083 Herrenberg",
                "capacity": 58,
                "type": "Parkplatz"
            }
        },
        {
            "type": "Feature",
            "geometry": {
                "type": "Point",
                "coordinates": [
                    8.872705,
                    48.593768
                ]
            },
            "properties": {
                "name": "Altstadtgarage",
                "address": "71083 Herrenberg",
                "capacity": 97,
                "type": "Parkhaus",
                "url": "https://stadtwerke.herrenberg.de/oepnv-parken/parken/sicher-und-zentral-parken/parkhaeuser-und-parkgebuehren/altstadtgarage/"
            }
        },
        {
            "type": "Feature",
            "geometry": {
                "type": "Point",
                "coordinates": [
                    8.869170,
                    48.595150
                ]
            },
            "properties": {
                "id" : "5c4224c0-0a0e-11ea-9bc9-896973774264",
                "name": "Auf dem Graben",
                "address": "71083 Herrenberg",
                "capacity": 63,
                "type": "Parkplatz"
            }
        },
        {
            "type": "Feature",
            "geometry": {
                "type": "Point",
                "coordinates": [
                    8.863247,
                    48.593634
                ]
            },
            "properties": {
                "name": "Bahnhofstra\u00dfe",
                "address": "71083 Herrenberg",
                "capacity": 47,
                "type": "Park-Ride",
                "url": "https://stadtwerke.herrenberg.de/oepnv-parken/parken/sicher-und-zentral-parken/parkhaeuser-und-parkgebuehren/kurzzeitparkplaetze-bahnhofstrasse/"
            }
        },
        {
            "type": "Feature",
            "geometry": {
                "type": "Point",
                "coordinates": [
                    8.867949,
                    48.596636
                ]
            },
            "properties": {
                "name": "Bronntor",
                "address": "71083 Herrenberg",
                "capacity": 90,
                "type": "Tiefgarage",
                "url": "https://stadtwerke.herrenberg.de/oepnv-parken/parken/sicher-und-zentral-parken/parkhaeuser-und-parkgebuehren/bronntor-tiefgarage/"
            }
        },
        {
            "type": "Feature",
            "geometry": {
                "type": "Point",
                "coordinates": [
                    8.871189,
                    48.594364
                ]
            },
            "properties": {
                "name": "G\u00fcltsteiner Stra\u00dfe",
                "address": "71083 Herrenberg",
                "capacity": 69,
                "type": "Parkplatz"
            }
        },
        {
            "type": "Feature",
            "geometry": {
                "type": "Point",
                "coordinates": [
                    8.872216,
                    48.594601
                ]
            },
            "properties": {
                "name": "Hasenplatz",
                "address": "71083 Herrenberg",
                "capacity": 20,
                "type": "Parkplatz"
            }
        },
        {
            "type": "Feature",
            "geometry": {
                "type": "Point",
                "coordinates": [
                    8.869475,
                    48.594798
                ]
            },
            "properties": {
                "name": "Hindenburgstra\u00dfe",
                "address": "71083 Herrenberg",
                "capacity": 19,
                "type": "Parkplatz"
            }
        },
        {
            "type": "Feature",
            "geometry": {
                "type": "Point",
                "coordinates": [
                    8.866325,
                    48.595168
                ]
            },
            "properties": {
                "name": "Horber Stra\u00dfe/Nagolder Stra\u00dfe",
                "address": "71083 Herrenberg",
                "capacity": 36,
                "type": "Parkplatz"
            }
        },
        {
            "type": "Feature",
            "geometry": {
                "type": "Point",
                "coordinates": [
                    8.870266,
                    48.597865
                ]
            },
            "properties": {
                "name": "Nufringer Tor",
                "address": "71083 Herrenberg",
                "capacity": 242,
                "type": "Parkhaus"
            }
        },
        {
            "type": "Feature",
            "geometry": {
                "type": "Point",
                "coordinates": [
                    8.862592,
                    48.594626
                ]
            },
            "properties": {
                "name": "P+R Kalkofenstra\u00dfe",
                "address": "71083 Herrenberg",
                "capacity": 398,
                "type": "Park-Ride",
                "url": "https://stadtwerke.herrenberg.de/oepnv-parken/parken/sicher-und-zentral-parken/parkhaeuser-und-parkgebuehren/p-r-parkhaus/"
            }
        },
        {
            "type": "Feature",
            "geometry": {
                "type": "Point",
                "coordinates": [
                    8.869270,
                    48.597414
                ]
            },
            "properties": {
                "name": "Seelesplatz",
                "address": "71083 Herrenberg",
                "capacity": 27,
                "type": "Parkplatz"
            }
        },
        {
            "type": "Feature",
            "geometry": {
                "type": "Point",
                "coordinates": [
                    8.869871,
                    48.599227
                ]
            },
            "properties": {
                "name": "Stadthalle",
                "address": "Ecke Seestra\u00dfe",
                "capacity": 211,
                "type": "Parkplatz"
            }
        },
        {
            "type": "Feature",
            "geometry": {
                "type": "Point",
                "coordinates": [
                    8.869386,
                    48.594350
                ]
            },
            "properties": {
                "name": "Volksbank",
                "address": "71083 Herrenberg",
                "capacity": 47,
                "type": "Parkplatz"
            }
        },
        {
            "type": "Feature",
            "geometry": {
                "type": "Point",
                "coordinates": [
                    8.874739,
                    48.595431
                ]
            },
            "properties": {
                "name": "Wilhelmstra\u00dfe",
                "address": "71083 Herrenberg",
                "capacity": 18,
                "type": "Parkplatz"
            }
        },
        {
            "type": "Feature",
            "geometry": {
                "type": "Point",
                "coordinates": [
                    8.86822,
                    48.59946
                ]
            },
            "properties": {
                "name": "Viehversteigerungshalle",
                "address": "71083 Herrenberg",
                "capacity": 95,
                "type": "Parkplatz"
            }
        },
        {
            "type": "Feature",
            "geometry": {
                "type": "Point",
                "coordinates": [
                  8.87751,
                  48.59019
                ]
            },
            "properties": {
                "id": "c455d080-fcb1-11e9-9a2d-876c1a6b66b2",
                "name": "Wohnmobilhafen Herrenberg",
                "address": "71083 Herrenberg",
                "capacity": 10,
                "type": "Wohnmobilparkplatz"
            }
        },
        {
            "type": "Feature",
            "geometry": {
                "type": "Point",
                "coordinates": [
                  8.90220,
                  48.58070
                ]
            },
            "properties": {
                "name": "Parken + Mitfahren A81/B296",
                "address": "Parkplatz bei der Autobahnmeisterei",
                "capacity": 10,
                "type": "Parken-Mitfahren"
            }
        }
    ]
}
